{"type":"FeatureCollection","features":[{"type":"Feature","id":1,"geometry":{"type":"Point","coordinates":[-79.514377363692319,43.745999894807468]},"properties":{"OBJECTID":1,"NAME":"Station 15","ADDRESS":"2753 JANE ST","ADD_PT_ID":531061}},{"type":"Feature","id":2,"geometry":{"type":"Point","coordinates":[-79.5845895534964,43.714161646105737]},"properties":{"OBJECTID":2,"NAME":"Station 14","ADDRESS":"321 REXDALE BLVD","ADD_PT_ID":1027342}},{"type":"Feature","id":3,"geometry":{"type":"Point","coordinates":[-79.308161123185911,43.802805984550879]},"properties":{"OBJECTID":3,"NAME":"Station 24","ADDRESS":"3061 BIRCHMOUNT RD","ADD_PT_ID":4616609}},{"type":"Feature","id":4,"geometry":{"type":"Point","coordinates":[-79.262966767554218,43.78915414447377]},"properties":{"OBJECTID":4,"NAME":"Station 29","ADDRESS":"4560 SHEPPARD AVE E","ADD_PT_ID":4840624}},{"type":"Feature","id":5,"geometry":{"type":"Point","coordinates":[-79.466538220233531,43.761808040223094]},"properties":{"OBJECTID":5,"NAME":"Station 53, Headquarters","ADDRESS":"4330 DUFFERIN ST","ADD_PT_ID":5336734}},{"type":"Feature","id":6,"geometry":{"type":"Point","coordinates":[-79.563832943848183,43.677164431056895]},"properties":{"OBJECTID":6,"NAME":"Station 13","ADDRESS":"555 MARTIN GROVE RD","ADD_PT_ID":7009492}},{"type":"Feature","id":7,"geometry":{"type":"Point","coordinates":[-79.271366136955237,43.750914417462354]},"properties":{"OBJECTID":7,"NAME":"Station 20, District 2 Office","ADDRESS":"2430 LAWRENCE AVE E","ADD_PT_ID":7171806}},{"type":"Feature","id":8,"geometry":{"type":"Point","coordinates":[-79.393301629054747,43.674709458185674]},"properties":{"OBJECTID":8,"NAME":"Station 45","ADDRESS":"135 DAVENPORT RD","ADD_PT_ID":7979626}},{"type":"Feature","id":9,"geometry":{"type":"Point","coordinates":[-79.469920240810083,43.653051681026632]},"properties":{"OBJECTID":9,"NAME":"Station 32","ADDRESS":"9 CLENDENAN AVE","ADD_PT_ID":7994003}},{"type":"Feature","id":10,"geometry":{"type":"Point","coordinates":[-79.549360414777212,43.623358151387535]},"properties":{"OBJECTID":10,"NAME":"Station 39","ADDRESS":"155 THE EAST MALL","ADD_PT_ID":8100063}},{"type":"Feature","id":11,"geometry":{"type":"Point","coordinates":[-79.466601985225353,43.712794991814064]},"properties":{"OBJECTID":11,"NAME":"Station 11","ADDRESS":"1135 CALEDONIA RD","ADD_PT_ID":8292801}},{"type":"Feature","id":12,"geometry":{"type":"Point","coordinates":[-79.226264990999042,43.74201756744074]},"properties":{"OBJECTID":12,"NAME":"Station 22","ADDRESS":"3100 EGLINTON AVE E","ADD_PT_ID":9011645}},{"type":"Feature","id":13,"geometry":{"type":"Point","coordinates":[-79.43612707859927,43.747639748974805]},"properties":{"OBJECTID":13,"NAME":"Station 54","ADDRESS":"4135 BATHURST ST","ADD_PT_ID":9246505}},{"type":"Feature","id":14,"geometry":{"type":"Point","coordinates":[-79.444289464083724,43.776294123244504]},"properties":{"OBJECTID":14,"NAME":"Station 55, District 5 Office","ADDRESS":"5700 BATHURST ST","ADD_PT_ID":9313399}},{"type":"Feature","id":15,"geometry":{"type":"Point","coordinates":[-79.393662528762832,43.790144218550992]},"properties":{"OBJECTID":15,"NAME":"Station 56","ADDRESS":"3300 BAYVIEW AVE","ADD_PT_ID":9602654}},{"type":"Feature","id":16,"geometry":{"type":"Point","coordinates":[-79.512387849626194,43.700607287535]},"properties":{"OBJECTID":16,"NAME":"Station 10","ADDRESS":"2015 LAWRENCE AVE W","ADD_PT_ID":9796836}},{"type":"Feature","id":17,"geometry":{"type":"Point","coordinates":[-79.310718353624509,43.687106354214251]},"properties":{"OBJECTID":17,"NAME":"Station 46","ADDRESS":"105 CEDARVALE AVE","ADD_PT_ID":10313343}},{"type":"Feature","id":18,"geometry":{"type":"Point","coordinates":[-79.548592375607925,43.754788135936842]},"properties":{"OBJECTID":18,"NAME":"Station 51","ADDRESS":"61 TORYORK DR","ADD_PT_ID":14627357}},{"type":"Feature","id":19,"geometry":{"type":"Point","coordinates":[-79.298535413294005,43.729570902755057]},"properties":{"OBJECTID":19,"NAME":"Station 21","ADDRESS":"887 PHARMACY AVE","ADD_PT_ID":11048269}},{"type":"Feature","id":20,"geometry":{"type":"Point","coordinates":[-79.421242014774606,43.633993660061662]},"properties":{"OBJECTID":20,"NAME":"Station 35","ADDRESS":"265 MANITOBA DR","ADD_PT_ID":13497638}},{"type":"Feature","id":21,"geometry":{"type":"Point","coordinates":[-79.415361424917705,43.772653054575848]},"properties":{"OBJECTID":21,"NAME":"Station 58","ADDRESS":"12 CANTERBURY PL","ADD_PT_ID":13498086}},{"type":"Feature","id":22,"geometry":{"type":"Point","coordinates":[-79.256243719797865,43.718022402281044]},"properties":{"OBJECTID":22,"NAME":"Station 47","ADDRESS":"3600 ST CLAIR AVE E","ADD_PT_ID":14120188}},{"type":"Feature","id":23,"geometry":{"type":"Point","coordinates":[-79.46658096267322,43.678285755664184]},"properties":{"OBJECTID":23,"NAME":"Station 30, District 3 Office","ADDRESS":"100 TURNBERRY AVE","ADD_PT_ID":14233307}},{"type":"Feature","id":24,"geometry":{"type":"Point","coordinates":[-79.174056747757348,43.770835355455318]},"properties":{"OBJECTID":24,"NAME":"Station 26","ADDRESS":"4331 LAWRENCE AVE E","ADD_PT_ID":14245877}},{"type":"Feature","id":25,"geometry":{"type":"Point","coordinates":[-79.188626524892328,43.80494948071712]},"properties":{"OBJECTID":25,"NAME":"Station 25","ADDRESS":"8500 SHEPPARD AVE E","ADD_PT_ID":20110476}},{"type":"Feature","id":26,"geometry":{"type":"Point","coordinates":[-79.350526147655927,43.692905563940634]},"properties":{"OBJECTID":26,"NAME":"Station 41","ADDRESS":"1300 PAPE AVE","ADD_PT_ID":31355}},{"type":"Feature","id":27,"geometry":{"type":"Point","coordinates":[-79.268557459907655,43.688984226737233]},"properties":{"OBJECTID":27,"NAME":"Station 42, District 4 Office","ADDRESS":"1535 KINGSTON RD","ADD_PT_ID":351918}},{"type":"Feature","id":28,"geometry":{"type":"Point","coordinates":[-79.25339007106173,43.754187658229711]},"properties":{"OBJECTID":28,"NAME":"Station 28","ADDRESS":"2900 LAWRENCE AVE E","ADD_PT_ID":354400}},{"type":"Feature","id":29,"geometry":{"type":"Point","coordinates":[-79.338592010841211,43.66283617846269]},"properties":{"OBJECTID":29,"NAME":"Station 43","ADDRESS":"126 PAPE AVE","ADD_PT_ID":851480}},{"type":"Feature","id":30,"geometry":{"type":"Point","coordinates":[-79.586027316230243,43.740325831060161]},"properties":{"OBJECTID":30,"NAME":"Station 12","ADDRESS":"1535 ALBION RD","ADD_PT_ID":982438}},{"type":"Feature","id":31,"geometry":{"type":"Point","coordinates":[-79.521430823743003,43.606765510929527]},"properties":{"OBJECTID":31,"NAME":"Station 38","ADDRESS":"259 HORNER AVE","ADD_PT_ID":1007854}},{"type":"Feature","id":32,"geometry":{"type":"Point","coordinates":[-79.24287659500186,43.824009961522059]},"properties":{"OBJECTID":32,"NAME":"Station 27","ADDRESS":"900 TAPSCOTT RD","ADD_PT_ID":4236992}},{"type":"Feature","id":33,"geometry":{"type":"Point","coordinates":[-79.472185079315878,43.73338387478907]},"properties":{"OBJECTID":33,"NAME":"Station 52","ADDRESS":"170 PLEWES RD","ADD_PT_ID":4435726}},{"type":"Feature","id":34,"geometry":{"type":"Point","coordinates":[-79.413186854087741,43.666064796274483]},"properties":{"OBJECTID":34,"NAME":"Station 34","ADDRESS":"674 MARKHAM ST","ADD_PT_ID":5900028}},{"type":"Feature","id":35,"geometry":{"type":"Point","coordinates":[-79.511970326104844,43.659835999911735]},"properties":{"OBJECTID":35,"NAME":"Station 31","ADDRESS":"4219 DUNDAS ST W","ADD_PT_ID":7257537}},{"type":"Feature","id":36,"geometry":{"type":"Point","coordinates":[-79.377878757421925,43.721946247863919]},"properties":{"OBJECTID":36,"NAME":"Station 57","ADDRESS":"2075 BAYVIEW AVE","ADD_PT_ID":7754918}},{"type":"Feature","id":37,"geometry":{"type":"Point","coordinates":[-79.416657318758254,43.702669481573594]},"properties":{"OBJECTID":37,"NAME":"Station 18","ADDRESS":"643 EGLINTON AVE W","ADD_PT_ID":8166363}},{"type":"Feature","id":38,"geometry":{"type":"Point","coordinates":[-79.376678781427074,43.652446835168639]},"properties":{"OBJECTID":38,"NAME":"Station 40","ADDRESS":"58 RICHMOND ST E","ADD_PT_ID":8313055}},{"type":"Feature","id":39,"geometry":{"type":"Point","coordinates":[-79.429931880169775,43.661722304268842]},"properties":{"OBJECTID":39,"NAME":"Station 33","ADDRESS":"760 DOVERCOURT RD","ADD_PT_ID":8417820}},{"type":"Feature","id":40,"geometry":{"type":"Point","coordinates":[-79.340692680581512,43.774420768260519]},"properties":{"OBJECTID":40,"NAME":"Station 23","ADDRESS":"115 PARKWAY FOREST DR","ADD_PT_ID":8823994}},{"type":"Feature","id":41,"geometry":{"type":"Point","coordinates":[-79.430198198659866,43.642140261113596]},"properties":{"OBJECTID":41,"NAME":"Station 37","ADDRESS":"1288 QUEEN ST W","ADD_PT_ID":8855496}},{"type":"Feature","id":42,"geometry":{"type":"Point","coordinates":[-79.546594685938047,43.754929225161277]},"properties":{"OBJECTID":42,"NAME":"17 Post","ADDRESS":"50 TORYORK DR","ADD_PT_ID":10367901}},{"type":"Feature","id":43,"geometry":{"type":"Point","coordinates":[-79.388616404076998,43.637698892222105]},"properties":{"OBJECTID":43,"NAME":"Station 36","ADDRESS":"339 QUEENS QUAY W","ADD_PT_ID":14069050}},{"type":"Feature","id":44,"geometry":{"type":"Point","coordinates":[-79.35907788348122,43.62540933075465]},"properties":{"OBJECTID":44,"NAME":"Station 59","ADDRESS":"235 CIBOLA AVE","ADD_PT_ID":14076406}},{"type":"Feature","id":45,"geometry":{"type":"Point","coordinates":[-79.385877434407718,43.637878432429233]},"properties":{"OBJECTID":45,"NAME":"Marine Unit","ADDRESS":"259 QUEENS QUAY W","ADD_PT_ID":13969962}},{"type":"Feature","id":46,"geometry":{"type":"Point","coordinates":[-79.148221139409316,43.777374288241745]},"properties":{"OBJECTID":46,"NAME":"26 Post","ADDRESS":"5316 LAWRENCE AVE E","ADD_PT_ID":6628399}},{"type":"Feature","id":47,"geometry":{"type":"Point","coordinates":[-79.412364502453372,43.644540772799331]},"properties":{"OBJECTID":47,"NAME":"Station 09","ADDRESS":"866 RICHMOND ST W","ADD_PT_ID":8492156}},{"type":"Feature","id":48,"geometry":{"type":"Point","coordinates":[-79.494602666357309,43.72451934209456]},"properties":{"OBJECTID":48,"NAME":"MFS-01, 01 Post, District 1 Office","ADDRESS":"1300 WILSON AV","ADD_PT_ID":10856659}}]}