{"type":"FeatureCollection","features":[{"type":"Feature","id":1,"geometry":{"type":"Point","coordinates":[-79.163608108967836,43.794228005499171]},"properties":{"OBJECTID_1":1,"NAME":"FIRE STATION 214","ADDRESS":"745 MEADOWVALE RD","WARD_NAME":"Scarborough East (44)","MUN_NAME":"Scarborough"}},{"type":"Feature","id":2,"geometry":{"type":"Point","coordinates":[-79.148072382066644,43.777409170303173]},"properties":{"OBJECTID_1":2,"NAME":"FIRE STATION 215","ADDRESS":"5318 LAWRENCE AVE E","WARD_NAME":"Scarborough East (44)","MUN_NAME":"Scarborough"}},{"type":"Feature","id":3,"geometry":{"type":"Point","coordinates":[-79.255069254032705,43.734807353775956]},"properties":{"OBJECTID_1":3,"NAME":"FIRE STATION 221","ADDRESS":"2575 EGLINTON AVE E","WARD_NAME":"Scarborough Southwest (35)","MUN_NAME":"Scarborough"}},{"type":"Feature","id":4,"geometry":{"type":"Point","coordinates":[-79.284097191328897,43.720416630762571]},"properties":{"OBJECTID_1":4,"NAME":"FIRE STATION 222","ADDRESS":"755 WARDEN AVE","WARD_NAME":"Scarborough Southwest (35)","MUN_NAME":"Scarborough"}},{"type":"Feature","id":5,"geometry":{"type":"Point","coordinates":[-79.233267611655236,43.723973967216075]},"properties":{"OBJECTID_1":5,"NAME":"FIRE STATION 223","ADDRESS":"116 DORSET RD","WARD_NAME":"Scarborough Southwest (36)","MUN_NAME":"Scarborough"}},{"type":"Feature","id":6,"geometry":{"type":"Point","coordinates":[-79.316603597495302,43.695204649757152]},"properties":{"OBJECTID_1":6,"NAME":"FIRE STATION 224","ADDRESS":"1313 WOODBINE AVE","WARD_NAME":"Beaches-East York (31)","MUN_NAME":"East York"}},{"type":"Feature","id":7,"geometry":{"type":"Point","coordinates":[-79.26850115977804,43.69593406875709]},"properties":{"OBJECTID_1":7,"NAME":"FIRE STATION 225","ADDRESS":"3600 DANFORTH AVE","WARD_NAME":"Scarborough Southwest (36)","MUN_NAME":"Scarborough"}},{"type":"Feature","id":8,"geometry":{"type":"Point","coordinates":[-79.299071838107793,43.68194052667662]},"properties":{"OBJECTID_1":8,"NAME":"FIRE STATION 226","ADDRESS":"87 MAIN ST","WARD_NAME":"Beaches-East York (32)","MUN_NAME":"former Toronto"}},{"type":"Feature","id":9,"geometry":{"type":"Point","coordinates":[-79.305044766868832,43.669180186415517]},"properties":{"OBJECTID_1":9,"NAME":"FIRE STATION 227","ADDRESS":"1904 QUEEN ST E","WARD_NAME":"Beaches-East York (32)","MUN_NAME":"former Toronto"}},{"type":"Feature","id":10,"geometry":{"type":"Point","coordinates":[-79.22779420329293,43.764661232738028]},"properties":{"OBJECTID_1":10,"NAME":"FIRE STATION 231","ADDRESS":"740 MARKHAM RD","WARD_NAME":"Scarborough Centre (38)","MUN_NAME":"Scarborough"}},{"type":"Feature","id":11,"geometry":{"type":"Point","coordinates":[-79.266857630612705,43.754984158719431]},"properties":{"OBJECTID_1":11,"NAME":"FIRE STATION 232","ADDRESS":"1550 MIDLAND AVE","WARD_NAME":"Scarborough Centre (37)","MUN_NAME":"Scarborough"}},{"type":"Feature","id":12,"geometry":{"type":"Point","coordinates":[-79.314526732342827,43.744120686329424]},"properties":{"OBJECTID_1":12,"NAME":"FIRE STATION 233","ADDRESS":"59 CURLEW DR","WARD_NAME":"Don Valley East (34)","MUN_NAME":"North York"}},{"type":"Feature","id":13,"geometry":{"type":"Point","coordinates":[-79.191528541120022,43.761085384915937]},"properties":{"OBJECTID_1":13,"NAME":"FIRE STATION 234","ADDRESS":"40 CORONATION DR","WARD_NAME":"Scarborough East (43)","MUN_NAME":"Scarborough"}},{"type":"Feature","id":14,"geometry":{"type":"Point","coordinates":[-79.314937786929917,43.724262016814627]},"properties":{"OBJECTID_1":14,"NAME":"FIRE STATION 235","ADDRESS":"200 BERMONDSEY RD","WARD_NAME":"Don Valley East (34)","MUN_NAME":"North York"}},{"type":"Feature","id":15,"geometry":{"type":"Point","coordinates":[-79.323809151621219,43.814059209676245]},"properties":{"OBJECTID_1":15,"NAME":"FIRE STATION 241","ADDRESS":"3325 WARDEN AVE","WARD_NAME":"Scarborough-Agincourt (39)","MUN_NAME":"Scarborough"}},{"type":"Feature","id":16,"geometry":{"type":"Point","coordinates":[-79.277259641928268,43.806928257341781]},"properties":{"OBJECTID_1":16,"NAME":"FIRE STATION 242","ADDRESS":"2733 BRIMLEY RD","WARD_NAME":"Scarborough-Rouge River (41)","MUN_NAME":"Scarborough"}},{"type":"Feature","id":17,"geometry":{"type":"Point","coordinates":[-79.262966763905467,43.789154141717205]},"properties":{"OBJECTID_1":17,"NAME":"FIRE STATION 243","ADDRESS":"4560 SHEPPARD AVE E","WARD_NAME":"Scarborough-Rouge River (41)","MUN_NAME":"Scarborough"}},{"type":"Feature","id":18,"geometry":{"type":"Point","coordinates":[-79.299121907305533,43.781699715770969]},"properties":{"OBJECTID_1":18,"NAME":"FIRE STATION 244","ADDRESS":"2340 BIRCHMOUNT RD","WARD_NAME":"Scarborough-Agincourt (40)","MUN_NAME":"Scarborough"}},{"type":"Feature","id":19,"geometry":{"type":"Point","coordinates":[-79.291524987107437,43.762709037124068]},"properties":{"OBJECTID_1":19,"NAME":"FIRE STATION 245","ADDRESS":"1600 BIRCHMOUNT RD","WARD_NAME":"Scarborough Centre (37)","MUN_NAME":"Scarborough"}},{"type":"Feature","id":20,"geometry":{"type":"Point","coordinates":[-79.3939824728876,43.685967982490887]},"properties":{"OBJECTID_1":20,"NAME":"FIRE STATION 311","ADDRESS":"20 BALMORAL AVE","WARD_NAME":"St. Paul's (22)","MUN_NAME":"former Toronto"}},{"type":"Feature","id":21,"geometry":{"type":"Point","coordinates":[-79.388926998785237,43.671892034930202]},"properties":{"OBJECTID_1":21,"NAME":"FIRE STATION 312","ADDRESS":"34 YORKVILLE AVE","WARD_NAME":"Toronto Centre-Rosedale (27)","MUN_NAME":"former Toronto"}},{"type":"Feature","id":22,"geometry":{"type":"Point","coordinates":[-79.375567440691086,43.672103640755516]},"properties":{"OBJECTID_1":22,"NAME":"FIRE STATION 313","ADDRESS":"441 BLOOR ST E","WARD_NAME":"Toronto Centre-Rosedale (28)","MUN_NAME":"former Toronto"}},{"type":"Feature","id":23,"geometry":{"type":"Point","coordinates":[-79.384668385842232,43.663074589932933]},"properties":{"OBJECTID_1":23,"NAME":"FIRE STATION 314","ADDRESS":"12 GROSVENOR ST","WARD_NAME":"Toronto Centre-Rosedale (27)","MUN_NAME":"former Toronto"}},{"type":"Feature","id":24,"geometry":{"type":"Point","coordinates":[-79.404788357253537,43.656841758180128]},"properties":{"OBJECTID_1":24,"NAME":"FIRE STATION 315","ADDRESS":"132 BELLEVUE AVE","WARD_NAME":"Trinity-Spadina (20)","MUN_NAME":"former Toronto"}},{"type":"Feature","id":25,"geometry":{"type":"Point","coordinates":[-79.364858012708382,43.708727048472291]},"properties":{"OBJECTID_1":25,"NAME":"FIRE STATION 321","ADDRESS":"231 MCRAE DR","WARD_NAME":"Don Valley West (26)","MUN_NAME":"East York"}},{"type":"Feature","id":26,"geometry":{"type":"Point","coordinates":[-79.342350312176109,43.691003342934216]},"properties":{"OBJECTID_1":26,"NAME":"FIRE STATION 322","ADDRESS":"256 COSBURN AVE","WARD_NAME":"Toronto-Danforth (29)","MUN_NAME":"East York"}},{"type":"Feature","id":27,"geometry":{"type":"Point","coordinates":[-79.334668704192239,43.679560072663094]},"properties":{"OBJECTID_1":27,"NAME":"FIRE STATION 323","ADDRESS":"153 CHATHAM AVE","WARD_NAME":"Toronto-Danforth (30)","MUN_NAME":"former Toronto"}},{"type":"Feature","id":28,"geometry":{"type":"Point","coordinates":[-79.343521556477086,43.667775269529834]},"properties":{"OBJECTID_1":28,"NAME":"FIRE STATION 324","ADDRESS":"840 GERRARD ST E","WARD_NAME":"Toronto-Danforth (30)","MUN_NAME":"former Toronto"}},{"type":"Feature","id":29,"geometry":{"type":"Point","coordinates":[-79.364860810650399,43.659387702804963]},"properties":{"OBJECTID_1":29,"NAME":"FIRE STATION 325","ADDRESS":"475 DUNDAS ST E","WARD_NAME":"Toronto Centre-Rosedale (28)","MUN_NAME":"former Toronto"}},{"type":"Feature","id":30,"geometry":{"type":"Point","coordinates":[-79.32501387028131,43.661555935047595]},"properties":{"OBJECTID_1":30,"NAME":"FIRE STATION 326","ADDRESS":"30 KNOX AVE","WARD_NAME":"Beaches-East York (32)","MUN_NAME":"former Toronto"}},{"type":"Feature","id":31,"geometry":{"type":"Point","coordinates":[-79.409780382748636,43.647353283410609]},"properties":{"OBJECTID_1":31,"NAME":"FIRE STATION 331","ADDRESS":"33 CLAREMONT ST","WARD_NAME":"Trinity-Spadina (19)","MUN_NAME":"former Toronto"}},{"type":"Feature","id":32,"geometry":{"type":"Point","coordinates":[-79.389570805584157,43.648323703110549]},"properties":{"OBJECTID_1":32,"NAME":"FIRE STATION 332","ADDRESS":"260 ADELAIDE ST W","WARD_NAME":"Trinity-Spadina (20)","MUN_NAME":"former Toronto"}},{"type":"Feature","id":33,"geometry":{"type":"Point","coordinates":[-79.366160569237749,43.65053797705702]},"properties":{"OBJECTID_1":33,"NAME":"FIRE STATION 333","ADDRESS":"207 FRONT ST E","WARD_NAME":"Toronto Centre-Rosedale (28)","MUN_NAME":"former Toronto"}},{"type":"Feature","id":34,"geometry":{"type":"Point","coordinates":[-79.388616404101057,43.637698891322046]},"properties":{"OBJECTID_1":34,"NAME":"FIRE STATION 334 HARBOURFRONT","ADDRESS":"339 QUEENS QUAY  W","WARD_NAME":"Trinity-Spadina (20)","MUN_NAME":"former Toronto"}},{"type":"Feature","id":35,"geometry":{"type":"Point","coordinates":[-79.359077878623154,43.625409327083339]},"properties":{"OBJECTID_1":35,"NAME":"FIRE STATION 335","ADDRESS":"235 CIBOLA AVE","WARD_NAME":"Toronto Centre-Rosedale (28)","MUN_NAME":"former Toronto"}},{"type":"Feature","id":36,"geometry":{"type":"Point","coordinates":[-79.441147256676146,43.694537483056763]},"properties":{"OBJECTID_1":36,"NAME":"FIRE STATION 341","ADDRESS":"555 OAKWOOD AVE","WARD_NAME":"Eglinton-Lawrence (15)","MUN_NAME":"York"}},{"type":"Feature","id":37,"geometry":{"type":"Point","coordinates":[-79.448632926776469,43.67938330452089]},"properties":{"OBJECTID_1":37,"NAME":"FIRE STATION 342","ADDRESS":"106 ASCOT AVE","WARD_NAME":"Davenport (17)","MUN_NAME":"former Toronto"}},{"type":"Feature","id":38,"geometry":{"type":"Point","coordinates":[-79.43075881540824,43.680122319813599]},"properties":{"OBJECTID_1":38,"NAME":"FIRE STATION 343","ADDRESS":"65 HENDRICK AVE","WARD_NAME":"St. Paul's (21)","MUN_NAME":"former Toronto"}},{"type":"Feature","id":39,"geometry":{"type":"Point","coordinates":[-79.411830774334618,43.672979402933109]},"properties":{"OBJECTID_1":39,"NAME":"FIRE STATION 344","ADDRESS":"240 HOWLAND AVE","WARD_NAME":"Trinity-Spadina (20)","MUN_NAME":"former Toronto"}},{"type":"Feature","id":40,"geometry":{"type":"Point","coordinates":[-79.438156079815911,43.667409711315209]},"properties":{"OBJECTID_1":40,"NAME":"FIRE STATION 345","ADDRESS":"1287 DUFFERIN ST","WARD_NAME":"Davenport (18)","MUN_NAME":"former Toronto"}},{"type":"Feature","id":41,"geometry":{"type":"Point","coordinates":[-79.421333116166181,43.633685557219458]},"properties":{"OBJECTID_1":41,"NAME":"FIRE STATION 346 CNE","ADDRESS":"90 QUEBEC ST","WARD_NAME":"Trinity-Spadina (19)","MUN_NAME":"former Toronto"}},{"type":"Feature","id":42,"geometry":{"type":"Point","coordinates":[-79.549168883551104,43.755266855413794]},"properties":{"OBJECTID_1":42,"NAME":"FIRE STATION 411","ADDRESS":"75 TORYORK DR","WARD_NAME":"York West (7)","MUN_NAME":"North York"}},{"type":"Feature","id":43,"geometry":{"type":"Point","coordinates":[-79.617644587478424,43.738125468471758]},"properties":{"OBJECTID_1":43,"NAME":"FIRE STATION 412","ADDRESS":"267 HUMBERLINE DR","WARD_NAME":"Etobicoke North (1)","MUN_NAME":"Etobicoke"}},{"type":"Feature","id":44,"geometry":{"type":"Point","coordinates":[-79.586912614164589,43.740235881432689]},"properties":{"OBJECTID_1":44,"NAME":"FIRE STATION 413","ADDRESS":"1549 ALBION RD","WARD_NAME":"Etobicoke North (1)","MUN_NAME":"Etobicoke"}},{"type":"Feature","id":45,"geometry":{"type":"Point","coordinates":[-79.570383520681105,43.717894385218578]},"properties":{"OBJECTID_1":45,"NAME":"FIRE STATION 415","ADDRESS":"2120 KIPLING AVE","WARD_NAME":"Etobicoke North (2)","MUN_NAME":"Etobicoke"}},{"type":"Feature","id":46,"geometry":{"type":"Point","coordinates":[-79.485308315043937,43.684317563681873]},"properties":{"OBJECTID_1":46,"NAME":"FIRE STATION 421","ADDRESS":"6 LAMBTON AVE","WARD_NAME":"York South-Weston (11)","MUN_NAME":"York"}},{"type":"Feature","id":47,"geometry":{"type":"Point","coordinates":[-79.490947854243998,43.664419348569581]},"properties":{"OBJECTID_1":47,"NAME":"FIRE STATION 422","ADDRESS":"590 JANE ST","WARD_NAME":"Parkdale-High Park (13)","MUN_NAME":"York"}},{"type":"Feature","id":48,"geometry":{"type":"Point","coordinates":[-79.464760633163039,43.664758943314368]},"properties":{"OBJECTID_1":48,"NAME":"FIRE STATION 423","ADDRESS":"358 KEELE ST","WARD_NAME":"Parkdale-High Park (13)","MUN_NAME":"former Toronto"}},{"type":"Feature","id":49,"geometry":{"type":"Point","coordinates":[-79.479636079461599,43.658371713356388]},"properties":{"OBJECTID_1":49,"NAME":"FIRE STATION 424","ADDRESS":"462 RUNNYMEDE RD","WARD_NAME":"Parkdale-High Park (13)","MUN_NAME":"former Toronto"}},{"type":"Feature","id":50,"geometry":{"type":"Point","coordinates":[-79.478065509868074,43.648004183914821]},"properties":{"OBJECTID_1":50,"NAME":"FIRE STATION 425","ADDRESS":"83 DEFOREST RD","WARD_NAME":"Parkdale-High Park (13)","MUN_NAME":"former Toronto"}},{"type":"Feature","id":51,"geometry":{"type":"Point","coordinates":[-79.438873358709472,43.645103601895528]},"properties":{"OBJECTID_1":51,"NAME":"FIRE STATION 426","ADDRESS":"140 LANSDOWNE AVE","WARD_NAME":"Parkdale-High Park (14)","MUN_NAME":"former Toronto"}},{"type":"Feature","id":52,"geometry":{"type":"Point","coordinates":[-79.504853738264444,43.646453221030001]},"properties":{"OBJECTID_1":52,"NAME":"FIRE STATION 431","ADDRESS":"308 PRINCE EDWARD DR S","WARD_NAME":"Etobicoke-Lakeshore (5)","MUN_NAME":"Etobicoke"}},{"type":"Feature","id":53,"geometry":{"type":"Point","coordinates":[-79.549360415972998,43.623358153203512]},"properties":{"OBJECTID_1":53,"NAME":"FIRE STATION 432","ADDRESS":"155 THE EAST MALL","WARD_NAME":"Etobicoke-Lakeshore (5)","MUN_NAME":"Etobicoke"}},{"type":"Feature","id":54,"geometry":{"type":"Point","coordinates":[-79.502944854811062,43.62803568666488]},"properties":{"OBJECTID_1":54,"NAME":"FIRE STATION 433","ADDRESS":"615 ROYAL YORK RD","WARD_NAME":"Etobicoke-Lakeshore (5)","MUN_NAME":"Etobicoke"}},{"type":"Feature","id":55,"geometry":{"type":"Point","coordinates":[-79.543995647965559,43.602587467621682]},"properties":{"OBJECTID_1":55,"NAME":"FIRE STATION 434","ADDRESS":"3 LUNNESS RD","WARD_NAME":"Etobicoke-Lakeshore (6)","MUN_NAME":"Etobicoke"}},{"type":"Feature","id":56,"geometry":{"type":"Point","coordinates":[-79.506976685576021,43.601135658056897]},"properties":{"OBJECTID_1":56,"NAME":"FIRE STATION 435","ADDRESS":"130 EIGHTH ST","WARD_NAME":"Etobicoke-Lakeshore (6)","MUN_NAME":"Etobicoke"}},{"type":"Feature","id":57,"geometry":{"type":"Point","coordinates":[-79.571926396636783,43.694977629180599]},"properties":{"OBJECTID_1":57,"NAME":"FIRE STATION 441","ADDRESS":"947 MARTIN GROVE RD","WARD_NAME":"Etobicoke North (2)","MUN_NAME":"Etobicoke"}},{"type":"Feature","id":58,"geometry":{"type":"Point","coordinates":[-79.512387844663607,43.700607287470397]},"properties":{"OBJECTID_1":58,"NAME":"FIRE STATION 442","ADDRESS":"2015 LAWRENCE AVE W","WARD_NAME":"York South-Weston (11)","MUN_NAME":"York"}},{"type":"Feature","id":59,"geometry":{"type":"Point","coordinates":[-79.53856036529298,43.678088181499696]},"properties":{"OBJECTID_1":59,"NAME":"FIRE STATION 443","ADDRESS":"1724 ISLINGTON AVE","WARD_NAME":"Etobicoke Centre (4)","MUN_NAME":"Etobicoke"}},{"type":"Feature","id":60,"geometry":{"type":"Point","coordinates":[-79.582702733009413,43.657483888948157]},"properties":{"OBJECTID_1":60,"NAME":"FIRE STATION 444","ADDRESS":"666 RENFORTH DR","WARD_NAME":"Etobicoke Centre (3)","MUN_NAME":"Etobicoke"}},{"type":"Feature","id":61,"geometry":{"type":"Point","coordinates":[-79.545109805827494,43.649365332445662]},"properties":{"OBJECTID_1":61,"NAME":"FIRE STATION 445","ADDRESS":"280 BURNHAMTHORPE RD","WARD_NAME":"Etobicoke-Lakeshore (5)","MUN_NAME":"Etobicoke"}},{"type":"Feature","id":62,"geometry":{"type":"Point","coordinates":[-79.393662525035552,43.790144218498611]},"properties":{"OBJECTID_1":62,"NAME":"FIRE STATION 111","ADDRESS":"3300 BAYVIEW AVE","WARD_NAME":"Willowdale (24)","MUN_NAME":"North York"}},{"type":"Feature","id":63,"geometry":{"type":"Point","coordinates":[-79.444289460403908,43.776294121393661]},"properties":{"OBJECTID_1":63,"NAME":"FIRE STATION 112","ADDRESS":"5700 BATHURST ST","WARD_NAME":"York Centre (10)","MUN_NAME":"North York"}},{"type":"Feature","id":64,"geometry":{"type":"Point","coordinates":[-79.350839622500658,43.793195154081985]},"properties":{"OBJECTID_1":64,"NAME":"FIRE STATION 113","ADDRESS":"700 SENECA HILL DR","WARD_NAME":"Don Valley East (33)","MUN_NAME":"North York"}},{"type":"Feature","id":65,"geometry":{"type":"Point","coordinates":[-79.41536142852506,43.772653059127734]},"properties":{"OBJECTID_1":65,"NAME":"FIRE STATION 114","ADDRESS":"12 CANTERBURY PL","WARD_NAME":"Willowdale (23)","MUN_NAME":"North York"}},{"type":"Feature","id":66,"geometry":{"type":"Point","coordinates":[-79.340692681873364,43.774420766478542]},"properties":{"OBJECTID_1":66,"NAME":"FIRE STATION 115","ADDRESS":"115 PARKWAY FOREST DR","WARD_NAME":"Don Valley East (33)","MUN_NAME":"North York"}},{"type":"Feature","id":67,"geometry":{"type":"Point","coordinates":[-79.365070277034036,43.769163156755305]},"properties":{"OBJECTID_1":67,"NAME":"FIRE STATION 116","ADDRESS":"255 ESTHER SHINER BLVD","WARD_NAME":"Willowdale (24)","MUN_NAME":"North York"}},{"type":"Feature","id":68,"geometry":{"type":"Point","coordinates":[-79.406787398172483,43.748557280272955]},"properties":{"OBJECTID_1":68,"NAME":"FIRE STATION 121","ADDRESS":"10 WILLIAM CARSON CRES","WARD_NAME":"Don Valley West (25)","MUN_NAME":"North York"}},{"type":"Feature","id":69,"geometry":{"type":"Point","coordinates":[-79.383732588674988,43.748661817092767]},"properties":{"OBJECTID_1":69,"NAME":"FIRE STATION 122","ADDRESS":"2545 BAYVIEW AVE","WARD_NAME":"Don Valley West (25)","MUN_NAME":"North York"}},{"type":"Feature","id":70,"geometry":{"type":"Point","coordinates":[-79.346732639232314,43.745831213452355]},"properties":{"OBJECTID_1":70,"NAME":"FIRE STATION 123","ADDRESS":"143 BOND AVE","WARD_NAME":"Don Valley East (34)","MUN_NAME":"North York"}},{"type":"Feature","id":71,"geometry":{"type":"Point","coordinates":[-79.349118800142762,43.721152985181739]},"properties":{"OBJECTID_1":71,"NAME":"FIRE STATION 125","ADDRESS":"1109 LESLIE ST","WARD_NAME":"Don Valley West (25)","MUN_NAME":"North York"}},{"type":"Feature","id":72,"geometry":{"type":"Point","coordinates":[-79.402163930355457,43.726234200172449]},"properties":{"OBJECTID_1":72,"NAME":"FIRE STATION 131","ADDRESS":"3135 YONGE ST","WARD_NAME":"Don Valley West (25)","MUN_NAME":"former Toronto"}},{"type":"Feature","id":73,"geometry":{"type":"Point","coordinates":[-79.428578525921665,43.719815334643542]},"properties":{"OBJECTID_1":73,"NAME":"FIRE STATION 132","ADDRESS":"476 LAWRENCE AVE W","WARD_NAME":"Eglinton-Lawrence (16)","MUN_NAME":"North York"}},{"type":"Feature","id":74,"geometry":{"type":"Point","coordinates":[-79.482191570775115,43.707202030211356]},"properties":{"OBJECTID_1":74,"NAME":"FIRE STATION 133","ADDRESS":"1505 LAWRENCE AVE W","WARD_NAME":"York South-Weston (12)","MUN_NAME":"North York"}},{"type":"Feature","id":75,"geometry":{"type":"Point","coordinates":[-79.399774946399177,43.709673942083086]},"properties":{"OBJECTID_1":75,"NAME":"FIRE STATION 134","ADDRESS":"16 MONTGOMERY AVE","WARD_NAME":"Eglinton-Lawrence (16)","MUN_NAME":"former Toronto"}},{"type":"Feature","id":76,"geometry":{"type":"Point","coordinates":[-79.418800769172151,43.703141637857669]},"properties":{"OBJECTID_1":76,"NAME":"FIRE STATION 135","ADDRESS":"325 CHAPLIN CRES","WARD_NAME":"Eglinton-Lawrence (16)","MUN_NAME":"former Toronto"}},{"type":"Feature","id":77,"geometry":{"type":"Point","coordinates":[-79.492727020242299,43.766830110880036]},"properties":{"OBJECTID_1":77,"NAME":"FIRE STATION 141","ADDRESS":"4100 KEELE ST","WARD_NAME":"York West (8)","MUN_NAME":"North York"}},{"type":"Feature","id":78,"geometry":{"type":"Point","coordinates":[-79.514377364933907,43.745999894823619]},"properties":{"OBJECTID_1":78,"NAME":"FIRE STATION 142","ADDRESS":"2753 JANE ST","WARD_NAME":"York Centre (9)","MUN_NAME":"North York"}},{"type":"Feature","id":79,"geometry":{"type":"Point","coordinates":[-79.459733475561734,43.750671338423558]},"properties":{"OBJECTID_1":79,"NAME":"FIRE STATION 143","ADDRESS":"1009 SHEPPARD AVE W","WARD_NAME":"York Centre (10)","MUN_NAME":"North York"}},{"type":"Feature","id":80,"geometry":{"type":"Point","coordinates":[-79.460038890502574,43.734772697647685]},"properties":{"OBJECTID_1":80,"NAME":"FIRE STATION 145","ADDRESS":"20 BEFFORT RD","WARD_NAME":"York Centre (9)","MUN_NAME":"North York"}},{"type":"Feature","id":81,"geometry":{"type":"Point","coordinates":[-79.509782804137501,43.723590039377449]},"properties":{"OBJECTID_1":81,"NAME":"FIRE STATION 146","ADDRESS":"2220 JANE ST","WARD_NAME":"York West (7)","MUN_NAME":"North York"}},{"type":"Feature","id":82,"geometry":{"type":"Point","coordinates":[-79.242876592462991,43.824009963283721]},"properties":{"OBJECTID_1":82,"NAME":"FIRE STATION 211","ADDRESS":"900 TAPSCOTT RD","WARD_NAME":"Scarborough-Rouge River (42)","MUN_NAME":"Scarborough"}},{"type":"Feature","id":83,"geometry":{"type":"Point","coordinates":[-79.188626523649731,43.804949480697417]},"properties":{"OBJECTID_1":83,"NAME":"FIRE STATION 212","ADDRESS":"8500 SHEPPARD AVE E","WARD_NAME":"Scarborough-Rouge River (42)","MUN_NAME":"Scarborough"}},{"type":"Feature","id":84,"geometry":{"type":"Point","coordinates":[-79.225968444271018,43.795423839029446]},"properties":{"OBJECTID_1":84,"NAME":"FIRE STATION 213","ADDRESS":"7 LAPSLEY RD","WARD_NAME":"Scarborough-Rouge River (42)","MUN_NAME":"Scarborough"}}]}